{"allPlaces":[{"denomination":"LA GRIGNOTIERE","positionLongitude":"2.2398086000000000","positionLatitude":"48.8342946000000100","adresse":"42, rue carnot","codePostal":"92100"},{"denomination":"CROISSANT\u0027IN","positionLongitude":"2.2392480802915020","positionLatitude":"48.8336979802915000","adresse":"184, rue de Billancourt","codePostal":"92100"},{"denomination":"LE REX","positionLongitude":"2.2383832000000000","positionLatitude":"48.8322152999999900","adresse":"58, avenue du G\u00e9n\u00e9ral Leclerc","codePostal":"92100"},{"denomination":"O\u0027CHAUD","positionLongitude":"2.2382119000000000","positionLatitude":"48.8323195000000000","adresse":"175, rue de Billancourt","codePostal":"92100"},{"denomination":"CASTILLO DE PASTA","positionLongitude":"2.2378131000000000","positionLatitude":"48.8339327802915000","adresse":"180, rue de Billancourt","codePostal":"92100"},{"denomination":"CAFFE PEONIA","positionLongitude":"2.2376702000000000","positionLatitude":"48.8339779999999900","adresse":"153, rue de Billancoiurt","codePostal":"92100"},{"denomination":"GOTHAM","positionLongitude":"2.2368232000000000","positionLatitude":"48.8352960000000000","adresse":"124, rue de Billacourt","codePostal":"92100"},{"denomination":"BOULANGERIE ZERZOUR","positionLongitude":"2.2368351000000000","positionLatitude":"48.8360034000000000","adresse":"127, rue de Billancour","codePostal":"92100"},{"denomination":"DELICE ROYAL BOULOGNE","positionLongitude":"2.2367976000000000","positionLatitude":"48.8360828000000000","adresse":"157, rue de Balli\u00e9ni","codePostal":"92100"},{"denomination":"LE CHIQUITO","positionLongitude":"2.2486935000000000","positionLatitude":"48.8296297000000000","adresse":"104, rue Billancourt","codePostal":"92100"},{"denomination":"SANTA MARIA","positionLongitude":"2.2366862000000000","positionLatitude":"48.8364627000000000","adresse":"119, rue de Billacourt","codePostal":"92100"},{"denomination":"ANTEP 27","positionLongitude":"2.2366505000000000","positionLatitude":"48.8364923000000000","adresse":"117, Rue de Billancourt","codePostal":"92100"},{"denomination":"VITALIS","positionLongitude":"2.2366630000000000","positionLatitude":"48.8365965000000000","adresse":"113, rue de BillancourT","codePostal":"92100"},{"denomination":"FRESHLY SNACK EXPRESS","positionLongitude":"2.2363694000000000","positionLatitude":"48.8367594000000000","adresse":"94,rue de Billancourt","codePostal":"92100"},{"denomination":"PIQUE DE SAVEURS","positionLongitude":"2.2363694000000000","positionLatitude":"48.8367594000000000","adresse":"94, rue de Billancourt","codePostal":"92100"},{"denomination":"B2B","positionLongitude":"2.2362662000000000","positionLatitude":"48.8371928000000000","adresse":"54, avenue Andr\u00e9-Morizet","codePostal":"92100"},{"denomination":"OUP\u0027S CAFE","positionLongitude":"2.2362816000000000","positionLatitude":"48.8373116000000000","adresse":"84, rue de Billancourt","codePostal":"92100"},{"denomination":"MIKAWA","positionLongitude":"2.2373757000000000","positionLatitude":"48.8362665999999900","adresse":"147 Bis,rue Gallieni","codePostal":"92100"},{"denomination":"BAGELSTEIN","positionLongitude":"2.2370076000000000","positionLatitude":"48.8361082000000000","adresse":"155 ,rue Gallieni","codePostal":"92100"},{"denomination":"BIOCOOP","positionLongitude":"2.2361407000000000","positionLatitude":"48.8360066000000000","adresse":"163 Ter, rue Galli\u00e9ni","codePostal":"92100"},{"denomination":"NIRMALA\u0027S PUB","positionLongitude":"2.2863270000000000","positionLatitude":"48.8925221000000000","adresse":"58, rue de Carnot","codePostal":"92100"},{"denomination":"IL GATTOPARDO","positionLongitude":"2.3850524000000000","positionLatitude":"48.8524265000000100","adresse":"22, rue Paul Bert","codePostal":"92100"},{"denomination":"LE NORMAND\u0027Y","positionLongitude":"2.2376481000000000","positionLatitude":"48.8340975000000000","adresse":"40, rue Carnot","codePostal":"92100"},{"denomination":"21 COREE","positionLongitude":"2.2415243000000000","positionLatitude":"48.8344038000000000","adresse":"15, rue Carnot","codePostal":"92100"},{"denomination":"LE RENDEZ-VOUS CAFE","positionLongitude":"2.2415243000000000","positionLatitude":"48.8344038000000000","adresse":"15, rue Carnot","codePostal":"92100"},{"denomination":"FRANPRIX","positionLongitude":"2.2417849000000000","positionLatitude":"48.8343742000000000","adresse":"13, rue Carnot","codePostal":"92100"},{"denomination":"LE 6","positionLongitude":"2.2382320000000000","positionLatitude":"48.8344984000000000","adresse":"6, rue de la Pyramyde","codePostal":"92100"},{"denomination":"M RESTAURANT","positionLongitude":"2.2395343000000000","positionLatitude":"48.8349036000000000","adresse":"34, rue PAul Bert","codePostal":"92100"},{"denomination":"SUBWAY","positionLongitude":"2.2395343000000000","positionLatitude":"48.8349036000000000","adresse":"34, rue Paul Bert","codePostal":"92100"},{"denomination":"BOULANGERIE Paul Bert","positionLongitude":"2.2391238000000000","positionLatitude":"48.8349006000000000","adresse":"29, rue Paul Bert","codePostal":"92100"},{"denomination":"LES GALOPINS BOULOGNE","positionLongitude":"2.2396403000000000","positionLatitude":"48.8338261000000000","adresse":"17, rue Paul Bert","codePostal":"92100"},{"denomination":"NINASUSHI","positionLongitude":"2.2399976000000000","positionLatitude":"48.8327805000000000","adresse":"36, avenue du G\u00e9n\u00e9ral Leclerc","codePostal":"92100"},{"denomination":"DELICES D\u0027ASIE","positionLongitude":"2.2378131000000000","positionLatitude":"48.8325837999999900","adresse":"180, rue de Billancourt","codePostal":"92100"},{"denomination":"CROQUE-MONSIEUR","positionLongitude":"2.2364406000000000","positionLatitude":"48.8358811000000000","adresse":"108, rue de Billancourt","codePostal":"92100"}]}